[
    {
        "id" : 0,
        "name": "Entrada",
        "Lat": 9.521143181626437,
        "Lng": -75.57646129804014

    },
    {
        "id" : 1, 
        "name": "Quintina Food",
        "lat" : 9.520456044689697,
        "lng" : -75.5828398433738 
    },
    {
        "id" : 2, 
        "name": "Arepas El Willi",
        "lat" : 9.522014344704946,
        "lng" : -75.58477488167529 
    },        
    {
        "id" : 3, 
        "name": "EL PALO É MANGO",
        "lat" : 9.523034859535468, 
        "lng" : -75.58184075453715
    },
    {
        "id" : 4, 
        "name": "CANELA, CAÑA Y CAVA",
        "lat" :9.52223253846721,  
        "lng" : -75.58006440371794
    }, 
    {
        "id" : 5, 
        "name": "Bar y Restaurante Los Arrieros",
        "lat" :9.525350396482555,   
        "lng" :-75.58297476584683
    },
    {
        "id" : 6, 
        "name": "Pollos Comby",
        "lat" :9.52805107030603,   
        "lng" :-75.58039560316385
    },     
    {
        "id" : 7, 
        "name": "Punto frio mafufo",
        "lat" :9.519229016934352,    
        "lng" :-75.58349992322981 
    },  
    {
        "id" : 8, 
        "name": "Restaurante El Paisa",
        "lat" :9.517293824727563,    
        "lng" :-75.57967871091576
    },
    {
        "id" : "9", 
        "name": "PANA'S BURGUER FAST FOOD & FRITE",
        "lat" :9.514487432784678,   
        "lng" :-75.58377838738622
    }
]